timestamp_s,acc_x,acc_y,acc_z,gyro_roll,gyro_pitch,gyro_yaw,altitude_m,pressure_hPa,mag_north,mag_east,mag_down,roll_deg,pitch_deg,yaw_deg,speed_mps,flight_phase
0.0,1.39611,-0.01777,-9.63794,0.002833,-0.010951,0.003155,0.149,1013.232,0.19845,0.12462,0.47205,0.0,8.0,45.0,0.0,takeoff
0.01,1.26018,-0.0228,-9.78552,0.001138,-0.004599,-0.001423,0.754,1013.1594,0.19801,0.13089,0.46917,0.0,8.0,45.0,0.038,takeoff
0.02,1.35335,-0.12755,-9.77799,0.002818,-0.005994,0.003008,0.914,1013.1402,0.20234,0.12984,0.45899,0.0,8.0,45.0,0.075,takeoff
0.03,1.42811,0.09163,-9.52287,0.002154,-0.002867,-0.000399,1.155,1013.1112,0.20828,0.12153,0.47379,0.0,8.0,45.0,0.113,takeoff
0.04,1.53461,0.02484,-9.6048,-0.003054,0.000369,0.001339,1.633,1013.0539,0.2029,0.12972,0.46921,0.0,8.0,45.0,0.15,takeoff
0.0501,1.3493,-0.03401,-9.73732,0.006943,-0.002256,0.003463,1.721,1013.0433,0.2003,0.12439,0.47551,0.0,8.0,45.0,0.188,takeoff
0.0601,1.31649,-0.10098,-9.81468,0.002476,0.002941,0.002578,2.198,1012.9859,0.20916,0.1198,0.46518,0.0,8.0,45.0,0.225,takeoff
0.0701,1.3029,-0.1093,-9.73389,0.001864,-0.001745,-0.006269,2.71,1012.9244,0.20109,0.13582,0.46275,0.0,8.0,45.0,0.263,takeoff
0.0801,1.36912,-0.10019,-9.5799,-0.002312,-0.005202,-0.002601,2.819,1012.9114,0.20912,0.13462,0.46657,0.0,8.0,45.0,0.3,takeoff
0.0901,1.43913,-0.03605,-9.55332,-0.000578,-0.000598,0.004571,3.151,1012.8715,0.20135,0.13056,0.46978,0.0,8.0,45.0,0.338,takeoff
0.1001,1.37106,-0.04817,-9.70168,0.006204,-0.001063,0.002031,3.264,1012.858,0.21779,0.13209,0.46639,0.0,8.0,45.0,0.375,takeoff
0.1101,1.3293,-0.06762,-9.8137,-0.001123,-0.000658,0.005868,3.406,1012.8409,0.19992,0.12315,0.46782,0.0,8.0,45.0,0.413,takeoff
0.1201,1.45625,0.00645,-9.72931,0.000189,-0.002835,-0.002851,4.021,1012.7671,0.20802,0.13199,0.46895,0.0,8.0,45.0,0.45,takeoff
0.1301,1.40192,0.01756,-9.5565,-0.003429,0.000245,0.001441,4.045,1012.7641,0.19514,0.12488,0.47724,0.0,8.0,45.0,0.488,takeoff
0.1401,1.51233,0.0465,-9.43747,0.000844,0.000892,0.000151,4.427,1012.7183,0.20218,0.11526,0.47644,0.0,8.0,45.0,0.526,takeoff
0.1502,1.35626,-0.05153,-9.7288,0.000356,0.003327,0.007791,4.555,1012.7029,0.20379,0.12039,0.47494,0.0,8.0,45.0,0.563,takeoff
0.1602,1.35781,-0.08821,-9.81592,-0.000454,0.002894,0.003161,5.205,1012.6248,0.19223,0.12523,0.48042,0.0,8.0,45.0,0.601,takeoff
0.1702,1.42192,-0.13681,-9.795,-0.002636,0.003175,0.002252,5.29,1012.6147,0.20573,0.11253,0.46458,0.0,8.0,45.0,0.638,takeoff
0.1802,1.40991,0.05028,-9.70138,-0.00018,0.00106,-0.00284,5.74,1012.5607,0.20589,0.13414,0.46885,0.0,8.0,45.0,0.676,takeoff
0.1902,1.42053,0.07154,-9.60093,0.000297,-0.003343,0.001095,6.133,1012.5135,0.20833,0.12182,0.47068,0.0,8.0,45.0,0.713,takeoff
0.2002,1.46406,-0.05222,-9.6587,0.000392,-0.002163,-0.003356,6.518,1012.4673,0.20169,0.13069,0.46689,0.0,8.0,45.0,0.751,takeoff
0.2102,1.31271,0.00446,-9.76823,0.001599,0.000306,0.00067,6.605,1012.4568,0.20226,0.13008,0.46653,0.0,8.0,45.0,0.788,takeoff
0.2202,1.42899,-0.06125,-9.78087,0.003251,-0.001901,0.000663,6.902,1012.4211,0.21003,0.12225,0.46937,0.0,8.0,45.0,0.826,takeoff
0.2302,1.4076,0.05003,-9.6124,0.006392,-0.002434,0.000846,7.181,1012.3876,0.19898,0.12038,0.46735,0.0,8.0,45.0,0.863,takeoff
0.2402,1.48588,0.02728,-9.55799,0.004631,0.002697,0.005338,7.379,1012.3638,0.20309,0.13463,0.47121,0.0,8.0,45.0,0.901,takeoff
0.2503,1.37726,0.0263,-9.61176,-0.000772,-0.001298,0.004334,7.633,1012.3333,0.20563,0.11999,0.46508,0.0,8.0,45.0,0.938,takeoff
0.2603,1.31629,-0.03206,-9.83239,-0.001015,-0.001791,-0.001891,8.172,1012.2687,0.21122,0.12517,0.46899,0.0,8.0,45.0,0.976,takeoff
0.2703,1.37253,-0.14789,-9.75789,0.010225,-0.002312,0.001187,8.52,1012.2269,0.21379,0.13044,0.45922,0.0,8.0,45.0,1.014,takeoff
0.2803,1.43412,0.13439,-9.57961,-0.00255,-0.001091,-0.002309,8.893,1012.1821,0.20078,0.12593,0.46571,0.0,8.0,45.0,1.051,takeoff
0.2903,1.40192,0.10343,-9.52789,-0.000773,-0.00537,-0.004073,8.821,1012.1908,0.20612,0.13046,0.4672,0.0,8.0,45.0,1.089,takeoff
0.3003,1.47024,-0.04436,-9.67033,-0.002321,0.001031,0.007844,9.045,1012.1639,0.20383,0.13189,0.46277,0.0,8.0,45.0,1.126,takeoff
0.3103,1.37315,0.00554,-9.81094,0.00256,0.00336,0.007386,9.6,1012.0973,0.2029,0.12096,0.47488,0.0,8.0,45.0,1.164,takeoff
0.3203,1.28427,-0.06009,-9.78244,-0.000586,-0.00109,0.009254,9.891,1012.0623,0.20339,0.13064,0.4712,0.0,8.0,45.0,1.201,takeoff
0.3303,1.47675,0.01275,-9.62648,-0.004422,-0.006799,-0.003952,10.267,1012.0172,0.19875,0.13184,0.47015,0.0,8.0,45.0,1.239,takeoff
0.3403,1.41701,-0.01313,-9.50147,-0.001477,-0.004885,0.00512,10.563,1011.9816,0.20439,0.12877,0.47004,0.0,8.0,45.0,1.276,takeoff
0.3504,1.41169,-0.04853,-9.55129,-0.000802,0.002746,0.00099,10.932,1011.9375,0.20923,0.1313,0.4658,0.0,8.0,45.0,1.314,takeoff
0.3604,1.39893,0.03698,-9.82595,0.001028,-0.0035,0.000519,11.368,1011.8851,0.20054,0.12085,0.47805,0.0,8.0,45.0,1.351,takeoff
0.3704,1.38326,0.05748,-9.81281,0.001315,-0.003896,0.001996,11.145,1011.9119,0.20899,0.12718,0.46971,0.0,8.0,45.0,1.389,takeoff
0.3804,1.3843,-0.04155,-9.58128,-0.002574,-0.000371,0.007783,11.934,1011.8171,0.19804,0.12288,0.47211,0.0,8.0,45.0,1.426,takeoff
0.3904,1.42594,-0.04098,-9.51296,0.000908,0.003829,0.000787,12.187,1011.7868,0.19923,0.12042,0.47361,0.0,8.0,45.0,1.464,takeoff
0.4004,1.44785,-0.05456,-9.64998,-0.003204,-0.002456,0.004065,12.247,1011.7796,0.20432,0.11991,0.46676,0.0,8.0,45.0,1.502,takeoff
0.4104,1.43367,-0.05099,-9.86138,2e-06,-0.006702,-0.001483,12.816,1011.7113,0.20485,0.13502,0.46952,0.0,8.0,45.0,1.539,takeoff
0.4204,1.34965,-0.01717,-9.92648,0.001561,-0.002053,0.00601,13.057,1011.6824,0.1999,0.13177,0.46869,0.0,8.0,45.0,1.577,takeoff
0.4304,1.35765,0.01212,-9.63141,0.005565,-0.000878,0.002163,13.348,1011.6475,0.21103,0.12948,0.4771,0.0,8.0,45.0,1.614,takeoff
0.4404,1.46016,0.03741,-9.47016,0.000678,-0.001806,0.006705,13.757,1011.5985,0.20552,0.1233,0.47732,0.0,8.0,45.0,1.652,takeoff
0.4505,1.43494,0.01013,-9.66381,0.001934,-0.001958,-0.000442,13.833,1011.5893,0.20689,0.12369,0.47452,0.0,8.0,45.0,1.689,takeoff
0.4605,1.411,-0.00543,-9.82339,0.003212,-0.001639,-0.002158,14.215,1011.5435,0.20629,0.13853,0.47729,0.0,8.0,45.0,1.727,takeoff
0.4705,1.38624,-0.03745,-9.78729,-0.002036,-0.007092,-0.001066,14.407,1011.5205,0.19504,0.12284,0.46876,0.0,8.0,45.0,1.764,takeoff
0.4805,1.39104,-0.03182,-9.64188,0.006142,0.000115,-0.000121,14.704,1011.4848,0.20542,0.12172,0.46615,0.0,8.0,45.0,1.802,takeoff
0.4905,1.48025,0.0083,-9.58645,0.00084,-0.0015,-0.004356,15.009,1011.4483,0.2099,0.12782,0.48115,0.0,8.0,45.0,1.839,takeoff
0.5005,1.45857,0.06794,-9.50419,0.003247,-0.001374,0.004488,15.231,1011.4216,0.2061,0.12232,0.47199,0.0,8.0,45.0,1.877,takeoff
0.5105,1.3143,-0.08793,-9.78691,0.000558,-0.007652,-0.002808,15.443,1011.3962,0.20115,0.12764,0.47109,0.0,8.0,45.0,1.914,takeoff
0.5205,1.40307,-0.01294,-9.74437,0.002823,-0.001243,0.004842,16.054,1011.323,0.20744,0.13192,0.45827,0.0,8.0,45.0,1.952,takeoff
0.5305,1.38605,-0.01508,-9.57078,0.005705,-0.006223,0.005783,16.04,1011.3246,0.19986,0.12439,0.46841,0.0,8.0,45.0,1.989,takeoff
0.5405,1.35191,0.06166,-9.49757,0.004158,-0.003166,0.001425,16.512,1011.268,0.214,0.11139,0.46522,0.0,8.0,45.0,2.027,takeoff
0.5506,1.39735,-0.05768,-9.6533,0.000621,-0.003847,0.00173,16.911,1011.2201,0.20438,0.1233,0.46917,0.0,8.0,45.0,2.065,takeoff
0.5606,1.34715,-0.13996,-9.78249,-0.000363,0.001898,0.003321,17.292,1011.1744,0.20051,0.12371,0.46379,0.0,8.0,45.0,2.102,takeoff
0.5706,1.31388,0.01119,-9.72607,-0.002447,-0.003251,0.00132,17.505,1011.1489,0.19676,0.11755,0.47245,0.0,8.0,45.0,2.14,takeoff
0.5806,1.30209,-0.02321,-9.62376,0.002252,-0.002319,0.000459,17.844,1011.1082,0.20699,0.12233,0.47019,0.0,8.0,45.0,2.177,takeoff
0.5906,1.44885,0.11516,-9.49207,0.004651,-0.00372,-1.2e-05,17.982,1011.0916,0.20485,0.12052,0.47633,0.0,8.0,45.0,2.215,takeoff
0.6006,1.44237,-0.01763,-9.60472,0.001666,0.000257,-0.00248,18.296,1011.054,0.20527,0.12868,0.46686,0.0,8.0,45.0,2.252,takeoff
0.6106,1.22334,-0.10636,-9.80629,0.001194,0.003155,0.003288,18.631,1011.0139,0.2054,0.13108,0.46705,0.0,8.0,45.0,2.29,takeoff
0.6206,1.34159,-0.10661,-9.7316,0.00217,-0.004026,0.001193,18.995,1010.9702,0.20431,0.12289,0.46673,0.0,8.0,45.0,2.327,takeoff
0.6306,1.41585,-0.01975,-9.65815,-0.003029,-0.001684,0.000984,19.171,1010.9491,0.20656,0.1293,0.47351,0.0,8.0,45.0,2.365,takeoff
0.6406,1.45772,0.01748,-9.55987,-0.002152,-0.003709,0.001586,19.401,1010.9215,0.20604,0.12074,0.4617,0.0,8.0,45.0,2.402,takeoff
0.6507,1.44042,-0.02468,-9.67522,-0.002291,-0.000673,0.005649,19.759,1010.8786,0.20449,0.13092,0.46095,0.0,8.0,45.0,2.44,takeoff
0.6607,1.44741,0.07084,-9.93659,0.000708,-0.004103,0.000725,20.057,1010.8428,0.20962,0.125,0.46545,0.0,8.0,45.0,2.477,takeoff
0.6707,1.33952,-0.02669,-9.86399,-0.003926,0.004029,-0.000397,20.4,1010.8018,0.20357,0.1283,0.47886,0.0,8.0,45.0,2.515,takeoff
0.6807,1.42663,-0.07865,-9.70841,-0.00018,-0.002758,-0.003631,20.843,1010.7486,0.20013,0.13303,0.4791,0.0,8.0,45.0,2.553,takeoff
0.6907,1.41737,0.05141,-9.59326,0.002891,-0.003437,-0.001732,20.977,1010.7325,0.20323,0.12394,0.47475,0.0,8.0,45.0,2.59,takeoff
0.7007,1.36116,0.08662,-9.69608,0.005867,-0.004993,0.001533,21.247,1010.7001,0.20384,0.12957,0.4775,0.0,8.0,45.0,2.628,takeoff
0.7107,1.40914,-0.07116,-9.7897,-0.001336,-0.004908,-0.001898,21.556,1010.6632,0.20681,0.116,0.46977,0.0,8.0,45.0,2.665,takeoff
0.7207,1.42307,0.00291,-9.8362,-0.003194,-0.000541,-0.005389,22.088,1010.5993,0.2045,0.13472,0.46137,0.0,8.0,45.0,2.703,takeoff
0.7307,1.44235,-0.00899,-9.65931,-0.003102,-0.000119,0.003593,22.49,1010.5512,0.2106,0.12259,0.46498,0.0,8.0,45.0,2.74,takeoff
0.7407,1.36135,0.1029,-9.57062,0.005431,-0.00035,0.002557,22.476,1010.5528,0.20887,0.12549,0.46815,0.0,8.0,45.0,2.778,takeoff
0.7508,1.43626,-0.00605,-9.66591,0.002784,-0.002126,0.003033,22.754,1010.5195,0.19952,0.13424,0.47773,0.0,8.0,45.0,2.815,takeoff
0.7608,1.39446,-0.06937,-9.81149,0.005138,-0.00301,-0.000336,23.404,1010.4416,0.20533,0.13441,0.46301,0.0,8.0,45.0,2.853,takeoff
0.7708,1.37239,0.04988,-9.80729,0.000214,-0.005463,0.004817,23.308,1010.4532,0.20509,0.11939,0.47778,0.0,8.0,45.0,2.89,takeoff
0.7808,1.45292,-0.00656,-9.70416,0.005609,-0.003052,-0.001734,23.459,1010.435,0.20233,0.11829,0.46689,0.0,8.0,45.0,2.928,takeoff
0.7908,1.4667,0.01048,-9.5143,-0.001162,-0.00175,0.007333,23.971,1010.3736,0.20749,0.11774,0.4776,0.0,8.0,45.0,2.965,takeoff
0.8008,1.37832,0.05455,-9.62913,0.002854,5.9e-05,0.000215,24.488,1010.3117,0.20177,0.12945,0.46805,0.0,8.0,45.0,3.003,takeoff
0.8108,1.3681,-0.07227,-9.79197,-0.002202,-0.001206,0.001708,24.543,1010.305,0.20529,0.12623,0.46692,0.0,8.0,45.0,3.041,takeoff
0.8208,1.33903,-0.10432,-9.69372,0.004191,-0.001143,0.005101,24.628,1010.2949,0.19278,0.12357,0.46311,0.0,8.0,45.0,3.078,takeoff
0.8308,1.38176,0.00445,-9.60415,-0.002399,-0.000752,0.001627,25.277,1010.2171,0.20296,0.13248,0.46948,0.0,8.0,45.0,3.116,takeoff
0.8408,1.5178,-0.01013,-9.49531,0.000822,-0.002924,0.003477,25.48,1010.1927,0.19225,0.11025,0.47636,0.0,8.0,45.0,3.153,takeoff
0.8509,1.46461,0.09773,-9.62026,-0.002873,-0.003206,0.001631,25.674,1010.1695,0.21381,0.13676,0.47239,0.0,8.0,45.0,3.191,takeoff
0.8609,1.35085,-0.11321,-9.71438,0.001225,-0.002818,0.003041,26.038,1010.1259,0.2063,0.11835,0.47544,0.0,8.0,45.0,3.228,takeoff
0.8709,1.33978,0.00313,-9.82303,0.000577,-0.005585,0.003893,26.295,1010.0952,0.20313,0.12557,0.47061,0.0,8.0,45.0,3.266,takeoff
0.8809,1.30743,-0.01856,-9.61423,-0.000155,-0.002618,0.002074,26.708,1010.0457,0.20041,0.12538,0.47497,0.0,8.0,45.0,3.303,takeoff
0.8909,1.37651,0.01056,-9.60209,0.003804,-0.002224,-0.000972,27.041,1010.0058,0.19955,0.1204,0.4627,0.0,8.0,45.0,3.341,takeoff
0.9009,1.35075,0.07228,-9.6527,0.002389,-0.004459,0.003855,27.173,1009.9899,0.20576,0.12583,0.48164,0.0,8.0,45.0,3.378,takeoff
0.9109,1.38389,-0.07701,-9.75486,0.007401,-0.006858,-0.000962,27.592,1009.9397,0.20348,0.1239,0.46348,0.0,8.0,45.0,3.416,takeoff
0.9209,1.41481,-0.12629,-9.82461,0.004134,-0.002081,-0.001381,27.725,1009.9237,0.20441,0.12178,0.47103,0.0,8.0,45.0,3.453,takeoff
0.9309,1.32167,0.03265,-9.65196,0.001562,0.00235,0.000252,28.119,1009.8766,0.20282,0.1246,0.46955,0.0,8.0,45.0,3.491,takeoff
0.9409,1.38755,-0.07186,-9.56174,0.002066,-0.001551,0.005157,28.822,1009.7924,0.20936,0.13248,0.47383,0.0,8.0,45.0,3.529,takeoff
0.951,1.4908,0.09813,-9.56524,0.003116,-0.002589,0.001445,28.778,1009.7976,0.20867,0.12196,0.46904,0.0,8.0,45.0,3.566,takeoff
0.961,1.23537,0.03959,-9.79766,0.00236,0.00239,0.002467,29.345,1009.7296,0.19935,0.13755,0.47544,0.0,8.0,45.0,3.604,takeoff
0.971,1.35462,0.01584,-9.87529,0.00013,0.002344,-0.004029,29.513,1009.7096,0.20822,0.13541,0.46209,0.0,8.0,45.0,3.641,takeoff
0.981,1.47112,-0.03687,-9.68418,-0.002676,-0.005246,0.002787,29.563,1009.7036,0.20926,0.12225,0.46393,0.0,8.0,45.0,3.679,takeoff
0.991,1.40238,0.04594,-9.54842,0.001092,0.000102,0.004825,29.983,1009.6533,0.20034,0.12594,0.47235,0.0,8.0,45.0,3.716,takeoff
1.001,1.33337,-0.03812,-9.64556,0.000371,-0.004249,0.003708,30.089,1009.6405,0.19766,0.12389,0.46912,0.0,8.0,45.0,3.754,takeoff
1.011,1.28131,-0.07625,-9.80416,-0.000175,-0.00148,-0.000392,30.852,1009.5492,0.208,0.12153,0.47047,0.0,8.0,45.0,3.791,takeoff
1.021,1.34992,0.00465,-9.84839,0.003311,-0.001803,0.006057,31.124,1009.5166,0.20655,0.12425,0.47253,0.0,8.0,45.0,3.829,takeoff
1.031,1.38073,0.07391,-9.66153,-0.000212,-0.003312,-0.00205,31.314,1009.4938,0.20146,0.13105,0.46354,0.0,8.0,45.0,3.866,takeoff
1.041,1.43537,0.08653,-9.64273,0.007058,-0.003208,0.002023,31.617,1009.4576,0.20919,0.12693,0.47499,0.0,8.0,45.0,3.904,takeoff
1.0511,1.43359,0.09573,-9.58019,0.006906,0.00077,-0.003824,32.223,1009.385,0.20269,0.13304,0.47013,0.0,8.0,45.0,3.941,takeoff
1.0611,1.40832,-0.07932,-9.74983,0.000264,0.002811,0.002893,32.272,1009.3791,0.19474,0.12514,0.47205,0.0,8.0,45.0,3.979,takeoff
1.0711,1.35484,-0.00831,-9.83798,0.001166,0.001619,-0.005251,32.521,1009.3494,0.20389,0.121,0.47168,0.0,8.0,45.0,4.017,takeoff
1.0811,1.45041,0.04085,-9.67596,0.003656,0.000683,0.001328,32.628,1009.3364,0.20239,0.12975,0.46979,0.0,8.0,45.0,4.054,takeoff
1.0911,1.37667,-0.05551,-9.49448,-0.000611,-0.000937,0.005307,32.836,1009.3115,0.20534,0.12471,0.4719,0.0,8.0,45.0,4.092,takeoff
1.1011,1.47097,-0.0578,-9.57471,0.004125,-0.002488,0.001157,33.396,1009.2445,0.20729,0.12848,0.47281,0.0,8.0,45.0,4.129,takeoff
1.1111,1.30724,0.00561,-9.72025,0.001584,-0.00641,0.001222,33.662,1009.2126,0.19984,0.12376,0.46295,0.0,8.0,45.0,4.167,takeoff
1.1211,1.37375,-0.04845,-9.9037,0.002078,-0.002093,0.003105,33.875,1009.1872,0.20156,0.12171,0.46731,0.0,8.0,45.0,4.204,takeoff
1.1311,1.38888,-0.00509,-9.6826,-0.000263,-0.002981,0.009086,34.118,1009.158,0.20277,0.14203,0.47211,0.0,8.0,45.0,4.242,takeoff
1.1411,1.35976,0.0705,-9.58238,0.003751,-0.002552,0.000229,34.776,1009.0793,0.2084,0.13043,0.47217,0.0,8.0,45.0,4.279,takeoff
1.1512,1.38744,0.03999,-9.53931,0.001426,0.003489,0.004102,34.866,1009.0685,0.20682,0.12625,0.46374,0.0,8.0,45.0,4.317,takeoff
1.1612,1.35234,-0.03203,-9.79607,0.00204,-0.001861,0.003872,35.234,1009.0244,0.2064,0.11873,0.47895,0.0,8.0,45.0,4.354,takeoff
1.1712,1.33567,-0.06136,-9.83952,-0.000434,0.002715,0.005701,35.502,1008.9924,0.20503,0.12866,0.47037,0.0,8.0,45.0,4.392,takeoff
1.1812,1.37713,0.00339,-9.69853,0.001785,-0.001331,0.003345,35.643,1008.9755,0.20911,0.12103,0.46714,0.0,8.0,45.0,4.429,takeoff
1.1912,1.40186,-0.02557,-9.48693,-0.001884,-0.004051,0.005305,35.95,1008.9387,0.20462,0.1205,0.47416,0.0,8.0,45.0,4.467,takeoff
1.2012,1.45299,0.04737,-9.56953,0.001243,-0.00355,-0.000904,36.53,1008.8693,0.20939,0.1221,0.4702,0.0,8.0,45.0,4.505,takeoff
1.2112,1.34283,-0.0987,-9.76306,-0.000234,-0.00483,-0.00291,36.402,1008.8846,0.20371,0.12514,0.46562,0.0,8.0,45.0,4.542,takeoff
1.2212,1.37486,-0.06109,-9.79454,0.000464,-0.004336,0.001873,36.747,1008.8433,0.20826,0.12088,0.47459,0.0,8.0,45.0,4.58,takeoff
1.2312,1.36851,0.03833,-9.73599,-0.001019,-0.000835,0.005027,37.487,1008.7547,0.20577,0.13475,0.46855,0.0,8.0,45.0,4.617,takeoff
1.2412,1.48289,-0.01938,-9.51735,-0.006025,-0.005348,0.002915,37.34,1008.7723,0.2077,0.1301,0.46749,0.0,8.0,45.0,4.655,takeoff
1.2513,1.36335,-0.01239,-9.64147,0.00069,-0.001671,0.000594,38.089,1008.6827,0.20197,0.13252,0.46479,0.0,8.0,45.0,4.692,takeoff
1.2613,1.36288,0.01771,-9.71232,-0.000277,-0.000315,0.002778,38.057,1008.6865,0.20864,0.13488,0.47236,0.0,8.0,45.0,4.73,takeoff
1.2713,1.37099,-0.0247,-9.89773,0.002368,-0.005011,-0.000262,38.762,1008.6021,0.2043,0.12186,0.47576,0.0,8.0,45.0,4.767,takeoff
1.2813,1.33736,-0.03852,-9.6214,0.001115,-0.006641,0.00314,38.679,1008.6121,0.21326,0.12253,0.47526,0.0,8.0,45.0,4.805,takeoff
1.2913,1.51679,-0.01546,-9.54963,0.002147,-0.004544,0.002314,39.005,1008.573,0.20434,0.12581,0.47036,0.0,8.0,45.0,4.842,takeoff
1.3013,1.42085,-0.01797,-9.61817,0.000615,-0.002124,0.000178,39.388,1008.5272,0.19649,0.12191,0.4686,0.0,8.0,45.0,4.88,takeoff
1.3113,1.3172,0.04081,-9.76511,0.001491,-0.003433,0.001453,39.457,1008.5189,0.20471,0.12088,0.46861,0.0,8.0,45.0,4.917,takeoff
1.3213,1.21413,-0.11498,-9.75264,0.003442,0.001971,0.005645,40.041,1008.4491,0.2033,0.12038,0.47573,0.0,8.0,45.0,4.955,takeoff
1.3313,1.38672,0.10753,-9.70598,0.006865,-0.002453,0.005499,40.494,1008.3948,0.20045,0.12314,0.46484,0.0,8.0,45.0,4.992,takeoff
1.3413,1.36602,0.0601,-9.55099,0.001096,-0.000303,-0.004097,40.733,1008.3662,0.20382,0.12823,0.4731,0.0,8.0,45.0,5.03,takeoff
1.3514,1.48219,0.00765,-9.69341,0.001098,-0.001362,-0.001611,40.863,1008.3507,0.20376,0.11885,0.47336,0.0,8.0,45.0,5.068,takeoff
1.3614,1.33262,-0.0602,-9.78597,0.004638,-0.002088,0.001707,41.075,1008.3253,0.20788,0.13231,0.47324,0.0,8.0,45.0,5.105,takeoff
1.3714,1.37573,-0.02883,-9.89576,-0.001717,-0.002579,-0.000711,41.281,1008.3006,0.1962,0.11883,0.46872,0.0,8.0,45.0,5.143,takeoff
1.3814,1.37848,-0.05818,-9.68737,-0.000401,0.001309,0.000983,41.846,1008.2331,0.20658,0.11855,0.46955,0.0,8.0,45.0,5.18,takeoff
1.3914,1.36497,0.02073,-9.57954,0.002056,-0.005989,0.001524,42.128,1008.1994,0.2101,0.12174,0.47009,0.0,8.0,45.0,5.218,takeoff
1.4014,1.42341,0.09085,-9.65827,-0.001823,0.006451,0.000671,42.058,1008.2077,0.20265,0.11172,0.4712,0.0,8.0,45.0,5.255,takeoff
1.4114,1.40199,-0.08473,-9.78296,0.003671,-0.007185,-0.002471,42.608,1008.1419,0.2018,0.12409,0.46368,0.0,8.0,45.0,5.293,takeoff
1.4214,1.35187,-0.06686,-9.80018,0.001505,-0.001309,-0.002826,43.017,1008.093,0.20391,0.12473,0.47524,0.0,8.0,45.0,5.33,takeoff
1.4314,1.34496,0.04779,-9.62291,0.00317,-0.004887,-0.005032,43.405,1008.0466,0.20612,0.12184,0.47587,0.0,8.0,45.0,5.368,takeoff
1.4414,1.38321,0.0042,-9.51759,-0.002432,-0.002273,0.004782,43.575,1008.0262,0.2118,0.13123,0.47004,0.0,8.0,45.0,5.405,takeoff
1.4515,1.29812,-0.0412,-9.54334,-0.003737,-0.002931,0.002531,44.064,1007.9677,0.20269,0.12235,0.46974,0.0,8.0,45.0,5.443,takeoff
1.4615,1.38,-0.04602,-9.70384,-0.001487,-0.001571,0.002871,44.084,1007.9653,0.20976,0.12631,0.47394,0.0,8.0,45.0,5.48,takeoff
1.4715,1.35056,-0.04109,-9.85992,-0.000981,0.001742,0.003438,44.291,1007.9406,0.20647,0.11369,0.46713,0.0,8.0,45.0,5.518,takeoff
1.4815,1.42772,-0.02746,-9.69278,-0.008127,-0.003111,0.002542,44.814,1007.878,0.21038,0.12451,0.46917,0.0,8.0,45.0,5.556,takeoff
1.4915,1.35905,0.01471,-9.60831,-0.004612,-0.005195,0.006053,45.004,1007.8552,0.20666,0.123,0.46105,0.0,8.0,45.0,5.593,takeoff
1.5015,1.46248,-0.09361,-9.60601,0.000752,-0.001241,-0.000633,45.069,1007.8475,0.20156,0.12182,0.46613,0.0,8.0,45.0,5.631,takeoff
1.5115,1.41211,-0.09795,-9.73747,0.001398,0.000963,0.001138,45.764,1007.7644,0.2047,0.12774,0.46249,0.0,8.0,45.0,5.668,takeoff
1.5215,1.20896,-0.04132,-9.80706,0.002352,-0.003502,0.006005,45.877,1007.7509,0.20767,0.12854,0.47859,0.0,8.0,45.0,5.706,takeoff
1.5315,1.36296,-0.05488,-9.77713,0.005591,-0.000662,0.00288,46.713,1007.6508,0.20719,0.11905,0.46902,0.0,8.0,45.0,5.743,takeoff
1.5415,1.37657,0.00443,-9.56695,-0.000841,-0.00612,0.006304,46.591,1007.6654,0.20444,0.12935,0.47236,0.0,8.0,45.0,5.781,takeoff
1.5516,1.43038,0.04978,-9.56881,0.002952,0.000333,0.001995,46.813,1007.6388,0.21322,0.12317,0.47196,0.0,8.0,45.0,5.818,takeoff
1.5616,1.38531,-0.06714,-9.7895,-0.000106,-0.003394,-0.002883,47.049,1007.6107,0.20689,0.13189,0.47277,0.0,8.0,45.0,5.856,takeoff
1.5716,1.21057,-0.02865,-9.8571,0.002311,-0.001949,0.000919,47.432,1007.5649,0.20545,0.13229,0.4699,0.0,8.0,45.0,5.893,takeoff
1.5816,1.4319,0.02326,-9.67236,-0.004421,0.00145,0.000102,47.855,1007.5143,0.2007,0.11964,0.47988,0.0,8.0,45.0,5.931,takeoff
1.5916,1.37692,0.08083,-9.542,-0.000323,-0.002023,-0.002427,48.046,1007.4915,0.20015,0.12359,0.47463,0.0,8.0,45.0,5.968,takeoff
1.6016,1.43014,-0.0578,-9.52985,0.000911,-0.003507,0.003726,48.323,1007.4583,0.19974,0.1348,0.46991,0.0,8.0,45.0,6.006,takeoff
1.6116,1.36155,-0.05582,-9.68635,-0.00063,-0.006506,-0.000539,48.847,1007.3956,0.20972,0.12429,0.47687,0.0,8.0,45.0,6.044,takeoff
1.6216,1.37774,-0.07405,-9.83774,0.00194,-0.004364,0.001511,48.995,1007.378,0.19713,0.12462,0.46848,0.0,8.0,45.0,6.081,takeoff
1.6316,1.42787,-0.11679,-9.72829,-0.000495,0.001,0.001357,49.518,1007.3154,0.20887,0.12351,0.4712,0.0,8.0,45.0,6.119,takeoff
1.6416,1.40656,0.06629,-9.61643,-0.001524,-0.000511,0.00518,49.219,1007.3512,0.21244,0.12486,0.46058,0.0,8.0,45.0,6.156,takeoff
1.6517,1.26823,-0.05937,-9.57096,0.000749,3.1e-05,-0.000135,49.683,1007.2957,0.2035,0.12573,0.47115,0.0,8.0,45.0,6.194,takeoff
1.6617,1.32704,0.0104,-9.77297,-0.001665,-0.003489,0.004735,50.13,1007.2423,0.20209,0.13019,0.48071,0.0,8.0,45.0,6.231,takeoff
1.6717,1.35072,0.00059,-9.77811,-0.000859,-0.001776,-0.002349,50.419,1007.2077,0.20243,0.12355,0.46625,0.0,8.0,45.0,6.269,takeoff
1.6817,1.36066,0.00053,-9.71873,-0.004634,-0.004078,-0.003061,50.787,1007.1637,0.20808,0.12685,0.46606,0.0,8.0,45.0,6.306,takeoff
1.6917,1.43577,-0.00127,-9.60837,0.00319,0.00062,0.004333,50.959,1007.1431,0.21146,0.1231,0.47327,0.0,8.0,45.0,6.344,takeoff
1.7017,1.39301,0.00629,-9.68824,6.3e-05,-0.001575,0.00025,51.614,1007.0648,0.19975,0.12275,0.46548,0.0,8.0,45.0,6.381,takeoff
1.7117,1.33902,0.0178,-9.66436,-0.001123,-0.004013,-0.001994,51.847,1007.037,0.21117,0.12503,0.46302,0.0,8.0,45.0,6.419,takeoff
1.7217,1.27445,-0.05281,-9.80236,-0.005214,-0.002809,0.006332,51.919,1007.0284,0.21301,0.12881,0.46458,0.0,8.0,45.0,6.456,takeoff
1.7317,1.35939,-0.03379,-9.76396,-0.001919,0.002668,-0.001454,52.414,1006.9693,0.20338,0.12544,0.47281,0.0,8.0,45.0,6.494,takeoff
1.7417,1.39311,0.0499,-9.65557,0.002307,-0.009274,0.000788,52.68,1006.9374,0.20867,0.11907,0.46415,0.0,8.0,45.0,6.532,takeoff
1.7518,1.38516,0.02757,-9.66615,0.000964,-0.00093,0.000606,52.931,1006.9074,0.20668,0.12286,0.46032,0.0,8.0,45.0,6.569,takeoff
1.7618,1.37528,-0.08026,-9.76356,0.002425,0.002387,0.001357,53.236,1006.871,0.19834,0.12679,0.4697,0.0,8.0,45.0,6.607,takeoff
1.7718,1.40135,-0.08829,-9.84208,0.004162,-0.002128,-0.001852,53.836,1006.7993,0.20017,0.12524,0.47173,0.0,8.0,45.0,6.644,takeoff
1.7818,1.38617,-0.03764,-9.72911,0.000286,-0.005213,0.007935,53.72,1006.8131,0.20855,0.12389,0.46823,0.0,8.0,45.0,6.682,takeoff
1.7918,1.3995,-0.05652,-9.56343,-0.000234,0.001658,-0.002114,53.967,1006.7836,0.20107,0.13278,0.46565,0.0,8.0,45.0,6.719,takeoff
1.8018,1.44814,0.06733,-9.56959,-0.003141,-0.005946,0.004054,54.165,1006.76,0.20752,0.12614,0.47189,0.0,8.0,45.0,6.757,takeoff
1.8118,1.39292,-0.07855,-9.77996,0.003138,-0.003744,-0.006783,54.752,1006.6899,0.20038,0.1279,0.47696,0.0,8.0,45.0,6.794,takeoff
1.8218,1.34048,-0.01191,-9.82251,0.005771,-0.005032,0.001436,55.056,1006.6535,0.20461,0.13132,0.46784,0.0,8.0,45.0,6.832,takeoff
1.8318,1.47518,0.07646,-9.70934,0.002673,0.001722,-0.002113,55.058,1006.6532,0.21185,0.12693,0.46887,0.0,8.0,45.0,6.869,takeoff
1.8418,1.42212,-0.09893,-9.56693,-0.001234,0.000884,0.004443,55.642,1006.5835,0.20754,0.11808,0.47295,0.0,8.0,45.0,6.907,takeoff
1.8519,1.45225,0.08181,-9.45408,-0.004055,-0.003038,-0.000765,55.881,1006.5549,0.20563,0.12439,0.47514,0.0,8.0,45.0,6.944,takeoff
1.8619,1.3153,-0.08288,-9.77882,-5.2e-05,-0.005566,0.001323,56.131,1006.525,0.20163,0.12993,0.4697,0.0,8.0,45.0,6.982,takeoff
1.8719,1.39273,-0.07138,-9.83161,-0.000659,-0.001914,0.003604,56.394,1006.4936,0.20816,0.1215,0.4738,0.0,8.0,45.0,7.02,takeoff
1.8819,1.34164,0.01197,-9.72421,0.005606,-0.005339,-0.002954,56.664,1006.4614,0.19864,0.11865,0.47311,0.0,8.0,45.0,7.057,takeoff
1.8919,1.42059,-0.00431,-9.57914,-0.00076,0.00308,-0.000724,56.858,1006.4381,0.20954,0.12448,0.48019,0.0,8.0,45.0,7.095,takeoff
1.9019,1.39493,0.06255,-9.50372,-0.000525,-0.004092,0.003711,57.443,1006.3683,0.19851,0.11992,0.45732,0.0,8.0,45.0,7.132,takeoff
1.9119,1.40105,-0.04269,-9.73232,-0.004036,-0.005164,3.4e-05,57.557,1006.3547,0.20615,0.12848,0.48135,0.0,8.0,45.0,7.17,takeoff
1.9219,1.33853,-0.00558,-9.87199,-0.003983,-0.002925,-0.00332,57.96,1006.3065,0.20166,0.11579,0.47868,0.0,8.0,45.0,7.207,takeoff
1.9319,1.34255,-0.11361,-9.68616,-0.001158,0.001409,-0.000707,58.177,1006.2806,0.20729,0.12853,0.47384,0.0,8.0,45.0,7.245,takeoff
1.9419,1.41553,0.04521,-9.52498,0.001631,-0.00229,-0.002839,58.648,1006.2243,0.20577,0.1235,0.47639,0.0,8.0,45.0,7.282,takeoff
1.952,1.35074,0.10277,-9.55711,0.002002,-0.003057,-0.003502,58.838,1006.2017,0.20724,0.12894,0.46901,0.0,8.0,45.0,7.32,takeoff
1.962,1.2631,-0.10578,-9.61826,-0.002236,0.002403,-0.001304,59.131,1006.1666,0.20869,0.12146,0.47796,0.0,8.0,45.0,7.357,takeoff
1.972,1.34361,-0.03839,-9.84416,0.003031,0.002877,0.001109,59.719,1006.0964,0.20251,0.12938,0.47245,0.0,8.0,45.0,7.395,takeoff
1.982,1.31503,-0.02203,-9.73459,-0.001509,-0.000761,0.001937,59.749,1006.0929,0.20522,0.12511,0.46816,0.0,8.0,45.0,7.432,takeoff
1.992,1.42651,-0.01391,-9.43238,-0.003183,-0.003607,-5e-06,60.366,1006.0191,0.19896,0.12769,0.47124,0.0,8.0,45.0,7.47,takeoff
2.002,0.4169,0.08327,-9.583,-0.000298,-10.473222,0.022112,60.315,1006.0252,0.20155,0.12467,0.46157,0.0,2.0,45.02,15.0,cruise
2.012,0.37146,-0.11238,-9.79948,-0.00261,-0.004377,0.136002,60.388,1006.0165,0.21106,0.13361,0.46614,0.0,2.0,45.09,15.0,cruise
2.022,0.39229,-0.13473,-9.88292,-0.000427,-0.004604,0.134389,60.442,1006.0101,0.20969,0.12709,0.47066,0.0,2.0,45.17,15.0,cruise
2.032,0.37138,-0.01873,-9.801,0.001665,0.000722,0.127656,60.28,1006.0294,0.19799,0.1276,0.47821,0.0,2.0,45.24,15.0,cruise
2.042,0.37248,0.02378,-9.61934,-0.005156,-0.003377,0.133613,59.865,1006.0789,0.19982,0.13192,0.47501,0.0,2.0,45.32,15.0,cruise
2.0521,0.41933,0.06615,-9.6312,0.002722,-0.002746,0.132859,60.205,1006.0383,0.21082,0.13423,0.4769,0.0,2.0,45.39,15.0,cruise
2.0621,0.33171,-0.07394,-9.73962,0.002691,-0.000816,0.130614,60.364,1006.0194,0.19887,0.12999,0.47689,0.0,2.0,45.47,15.0,cruise
2.0721,0.39872,-0.02575,-9.98914,0.001645,0.004608,0.12992,60.291,1006.0281,0.21116,0.13011,0.4824,0.0,2.0,45.54,15.0,cruise
2.0821,0.30707,-0.08422,-9.77053,-0.002536,-0.002381,0.132329,60.455,1006.0084,0.20695,0.12951,0.46799,0.0,2.0,45.62,15.0,cruise
2.0921,0.45619,0.21804,-9.62546,0.001342,-0.005672,0.13062,60.268,1006.0308,0.201,0.12735,0.47889,0.0,2.0,45.69,15.0,cruise
2.1021,0.46383,0.01494,-9.7009,0.005062,-0.001913,0.127347,60.407,1006.0142,0.2086,0.1155,0.46588,0.0,2.0,45.77,15.0,cruise
2.1121,0.34785,0.01168,-9.82597,-0.001448,0.000414,0.131108,60.381,1006.0173,0.19771,0.12107,0.47378,0.0,2.0,45.84,15.0,cruise
2.1221,0.33005,-0.01497,-9.94654,-0.001339,0.002328,0.127947,60.488,1006.0046,0.20966,0.13233,0.46656,0.0,2.0,45.92,15.0,cruise
2.1321,0.302,-0.0464,-9.9001,-0.001852,0.000164,0.13448,60.143,1006.0458,0.20623,0.1305,0.47755,0.0,2.0,45.99,15.0,cruise
2.1421,0.42333,0.06889,-9.63872,0.003972,-0.005638,0.132164,60.294,1006.0277,0.20142,0.13065,0.47317,0.0,2.0,46.07,15.0,cruise
2.1522,0.42166,0.01437,-9.67557,0.004308,-0.000713,0.12947,60.271,1006.0305,0.19372,0.12881,0.46901,0.0,2.0,46.14,15.0,cruise
2.1622,0.32601,0.05507,-9.85418,0.00315,0.004798,0.135772,60.295,1006.0276,0.19656,0.12202,0.46794,0.0,2.0,46.22,15.0,cruise
2.1722,0.28347,-0.09686,-9.93577,0.000726,-0.000298,0.128834,60.198,1006.0392,0.20122,0.12805,0.47918,0.0,2.0,46.29,15.0,cruise
2.1822,0.35367,-0.11736,-9.81805,0.002676,-0.002125,0.128904,60.564,1005.9955,0.19646,0.13253,0.471,0.0,2.0,46.37,15.0,cruise
2.1922,0.42418,0.10086,-9.63735,-0.000617,0.001559,0.130651,60.325,1006.0241,0.19514,0.12426,0.47026,0.0,2.0,46.44,15.0,cruise
2.2022,0.42087,-0.06111,-9.61232,-0.0014,0.002084,0.131484,60.131,1006.0471,0.20177,0.12504,0.47634,0.0,2.0,46.52,15.0,cruise
2.2122,0.35573,-0.03031,-9.76354,-0.001953,-0.005624,0.13375,60.135,1006.0467,0.19568,0.13401,0.47263,0.0,2.0,46.59,15.0,cruise
2.2222,0.25502,-0.09147,-9.96447,0.006391,0.00095,0.131245,60.386,1006.0167,0.19419,0.12666,0.47052,0.0,2.0,46.67,15.0,cruise
2.2322,0.36306,-0.04231,-9.83022,0.001298,-0.002253,0.131624,60.236,1006.0346,0.20192,0.13227,0.47099,0.0,2.0,46.74,15.0,cruise
2.2422,0.3337,-0.03526,-9.6484,0.005484,-0.001325,0.131264,60.334,1006.023,0.19487,0.13696,0.47093,0.0,2.0,46.82,15.0,cruise
2.2523,0.369,0.01639,-9.66196,0.005024,-0.002399,0.132971,60.386,1006.0167,0.19664,0.13158,0.47137,0.0,2.0,46.89,15.0,cruise
2.2623,0.27871,-0.00876,-9.7915,0.001472,-0.001685,0.133276,60.501,1006.003,0.19423,0.1291,0.47333,0.0,2.0,46.97,15.0,cruise
2.2723,0.34178,-0.03704,-9.78072,0.00293,0.001602,0.131573,60.151,1006.0448,0.19835,0.13457,0.47203,0.0,2.0,47.04,15.0,cruise
2.2823,0.35964,-0.04898,-9.86438,0.000537,0.000386,0.135004,60.149,1006.045,0.20352,0.12795,0.47234,0.0,2.0,47.12,15.0,cruise
2.2923,0.38245,0.0924,-9.69191,0.001617,5.8e-05,0.129874,60.289,1006.0283,0.19817,0.12883,0.4678,0.0,2.0,47.19,15.0,cruise
2.3023,0.45878,-0.00474,-9.60557,0.002032,-0.005953,0.134034,60.088,1006.0523,0.20243,0.12906,0.47004,0.0,2.0,47.27,15.0,cruise
2.3123,0.2928,-0.01422,-9.73911,-0.001346,-0.003571,0.133832,60.372,1006.0184,0.1869,0.14187,0.47264,0.0,2.0,47.34,15.0,cruise
2.3223,0.3525,-0.06724,-10.01041,0.003092,-0.003447,0.134089,60.267,1006.0309,0.20005,0.12811,0.47432,0.0,2.0,47.42,15.0,cruise
2.3323,0.27879,0.0729,-9.73718,0.005954,0.002075,0.132195,60.475,1006.0061,0.19817,0.12441,0.47752,0.0,2.0,47.49,15.0,cruise
2.3423,0.44709,0.01159,-9.7351,-0.00071,-0.007223,0.135289,60.06,1006.0557,0.19987,0.12816,0.46287,0.0,2.0,47.57,15.0,cruise
2.3524,0.41486,0.00878,-9.59054,-0.002757,-0.004033,0.125297,59.972,1006.0661,0.20722,0.14299,0.47046,0.0,2.0,47.64,15.0,cruise
2.3624,0.31697,-0.03415,-9.73797,-0.000498,-0.001051,0.132426,60.215,1006.0372,0.19538,0.13423,0.46512,0.0,2.0,47.72,15.0,cruise
2.3724,0.34033,-0.0834,-9.91025,0.005203,-0.00227,0.135225,60.031,1006.0591,0.19545,0.1331,0.47962,0.0,2.0,47.79,15.0,cruise
2.3824,0.23907,-0.04541,-9.77945,-0.001311,-0.002413,0.133468,60.328,1006.0237,0.20541,0.13539,0.47664,0.0,2.0,47.87,15.0,cruise
2.3924,0.37177,-0.02503,-9.68823,-0.002429,-0.000319,0.131318,60.199,1006.039,0.19986,0.12763,0.47385,0.0,2.0,47.94,15.0,cruise
2.4024,0.37953,0.08375,-9.65119,0.002944,-0.001224,0.134717,60.316,1006.025,0.18884,0.13858,0.46956,0.0,2.0,48.02,15.0,cruise
2.4124,0.39873,0.01617,-9.81689,-0.001687,0.000202,0.131589,60.44,1006.0102,0.19605,0.13885,0.47212,0.0,2.0,48.09,15.0,cruise
2.4224,0.33235,-0.07829,-9.90447,0.004639,-0.00192,0.134095,60.307,1006.0262,0.19735,0.14254,0.47601,0.0,2.0,48.17,15.0,cruise
2.4324,0.33992,-0.03071,-9.89082,0.000544,-0.000836,0.135061,60.412,1006.0136,0.19097,0.139,0.46956,0.0,2.0,48.24,15.0,cruise
2.4424,0.33935,0.07806,-9.6069,0.001882,0.000358,0.134812,60.509,1006.002,0.19994,0.12767,0.48005,0.0,2.0,48.32,15.0,cruise
2.4525,0.45696,0.0008,-9.68159,0.002601,-0.002608,0.133515,60.412,1006.0137,0.19325,0.12892,0.47193,0.0,2.0,48.39,15.0,cruise
2.4625,0.33354,-0.00995,-9.84152,0.000323,0.000367,0.134327,60.182,1006.0411,0.19003,0.13477,0.47281,0.0,2.0,48.47,15.0,cruise
2.4725,0.33845,-0.0851,-9.9001,0.005579,-0.00118,0.127616,60.33,1006.0234,0.20587,0.12844,0.47015,0.0,2.0,48.54,15.0,cruise
2.4825,0.32374,-0.03775,-9.84891,0.00452,-0.001544,0.136331,60.282,1006.0291,0.19368,0.13173,0.46091,0.0,2.0,48.62,15.0,cruise
2.4925,0.40162,0.11284,-9.66008,0.003169,-0.003045,0.131779,60.448,1006.0094,0.20526,0.1427,0.47403,0.0,2.0,48.69,15.0,cruise
2.5025,0.40581,0.03682,-9.66668,-0.003238,-0.005193,0.13266,60.256,1006.0322,0.18765,0.13527,0.46841,0.0,2.0,48.77,15.0,cruise
2.5125,0.30309,-0.03453,-9.78671,-0.000736,0.000965,0.126796,60.002,1006.0626,0.1948,0.13612,0.47202,0.0,2.0,48.84,15.0,cruise
2.5225,0.29177,-0.10475,-9.91403,-0.000213,0.002826,0.131536,60.292,1006.028,0.20694,0.13486,0.47278,0.0,2.0,48.92,15.0,cruise
2.5325,0.36667,-0.00656,-9.84714,0.001676,-0.001531,0.130789,60.349,1006.0212,0.20449,0.14207,0.47152,0.0,2.0,48.99,15.0,cruise
2.5425,0.42993,-0.03382,-9.69892,0.003941,0.002636,0.130203,60.227,1006.0357,0.20504,0.13669,0.47912,0.0,2.0,49.07,15.0,cruise
2.5526,0.41479,0.03944,-9.64294,0.003936,0.002257,0.129416,60.247,1006.0333,0.19849,0.13575,0.46753,0.0,2.0,49.14,15.0,cruise
2.5626,0.41306,0.04074,-9.78909,0.001755,-0.005435,0.12983,60.319,1006.0248,0.19385,0.13175,0.46642,0.0,2.0,49.22,15.0,cruise
2.5726,0.26579,-0.03533,-10.01045,-0.00193,-0.007394,0.133779,60.03,1006.0593,0.19364,0.14497,0.47837,0.0,2.0,49.29,15.0,cruise
2.5826,0.24307,-0.02882,-9.91388,-0.002464,-0.002155,0.136197,60.39,1006.0163,0.18968,0.14049,0.45878,0.0,2.0,49.37,15.0,cruise
2.5926,0.34842,-0.03226,-9.68509,0.000512,-0.002239,0.13197,60.303,1006.0266,0.19574,0.1379,0.46858,0.0,2.0,49.44,15.0,cruise
2.6026,0.42488,0.06896,-9.65419,0.000946,0.001652,0.129176,60.571,1005.9947,0.18613,0.13561,0.46525,0.0,2.0,49.52,15.0,cruise
2.6126,0.47337,-0.03843,-9.78778,2.5e-05,-0.001528,0.131487,60.28,1006.0294,0.17496,0.13781,0.47009,0.0,2.0,49.59,15.0,cruise
2.6226,0.3715,0.00777,-9.92025,0.003583,-0.00512,0.134792,60.214,1006.0373,0.18646,0.13678,0.477,0.0,2.0,49.67,15.0,cruise
2.6326,0.34165,0.03011,-9.90495,0.004273,-0.003776,0.133181,60.333,1006.0231,0.19547,0.13915,0.4663,0.0,2.0,49.74,15.0,cruise
2.6426,0.42926,0.0945,-9.72158,-0.00438,-0.000314,0.131497,60.28,1006.0294,0.19472,0.1358,0.46866,0.0,2.0,49.82,15.0,cruise
2.6527,0.40019,0.10146,-9.62424,-0.002583,-0.005417,0.132898,60.131,1006.0472,0.18391,0.14145,0.47342,0.0,2.0,49.89,15.0,cruise
2.6627,0.34682,0.0026,-9.74996,0.002939,-1.5e-05,0.124659,60.264,1006.0313,0.19409,0.1364,0.47018,0.0,2.0,49.97,15.0,cruise
2.6727,0.35755,-0.05311,-9.83429,0.004506,-0.002187,0.131886,59.872,1006.0781,0.18965,0.13187,0.47111,0.0,2.0,50.05,15.0,cruise
2.6827,0.33954,-0.0105,-9.80068,0.001056,0.004983,0.133169,60.103,1006.0505,0.18825,0.13696,0.47296,0.0,2.0,50.12,15.0,cruise
2.6927,0.3369,-0.00774,-9.7036,-0.000208,0.000575,0.1344,60.475,1006.0061,0.18918,0.14502,0.46318,0.0,2.0,50.2,15.0,cruise
2.7027,0.336,-0.0324,-9.62445,0.004746,-0.003668,0.13104,60.268,1006.0309,0.19348,0.13681,0.46733,0.0,2.0,50.27,15.0,cruise
2.7127,0.29891,-0.03955,-9.69663,0.001409,-0.00407,0.136171,60.212,1006.0375,0.19749,0.1464,0.47028,0.0,2.0,50.35,15.0,cruise
2.7227,0.24544,0.05776,-9.88871,0.000164,0.00102,0.134586,60.497,1006.0035,0.18686,0.14116,0.46407,0.0,2.0,50.42,15.0,cruise
2.7327,0.36403,-0.04745,-9.85902,0.000694,-0.002592,0.129886,60.419,1006.0128,0.1974,0.13696,0.47277,0.0,2.0,50.5,15.0,cruise
2.7427,0.40454,0.00623,-9.77512,-0.002773,-0.004184,0.126071,60.511,1006.0018,0.19157,0.13978,0.45905,0.0,2.0,50.57,15.0,cruise
2.7528,0.31414,0.0281,-9.52564,-0.000967,0.000759,0.13105,60.308,1006.026,0.19558,0.13838,0.46655,0.0,2.0,50.65,15.0,cruise
2.7628,0.43807,-0.00806,-9.69719,-0.000924,0.002376,0.133301,60.365,1006.0192,0.18994,0.13777,0.46999,0.0,2.0,50.72,15.0,cruise
2.7728,0.29877,-0.0089,-9.91668,-0.003336,-0.006884,0.127292,60.393,1006.0159,0.1833,0.14198,0.47068,0.0,2.0,50.8,15.0,cruise
2.7828,0.32674,-0.02589,-9.86813,-0.006962,-0.002814,0.133754,60.546,1005.9976,0.19727,0.13384,0.46825,0.0,2.0,50.87,15.0,cruise
2.7928,0.30398,0.08054,-9.65154,0.002218,-0.001348,0.136618,60.482,1006.0053,0.1944,0.14312,0.46825,0.0,2.0,50.95,15.0,cruise
2.8028,0.44442,0.06893,-9.63293,9.9e-05,0.001553,0.137472,60.188,1006.0404,0.18707,0.14278,0.47243,0.0,2.0,51.02,15.0,cruise
2.8128,0.34257,0.08496,-9.7268,0.002765,0.003431,0.131109,60.287,1006.0286,0.1819,0.14034,0.46256,0.0,2.0,51.1,15.0,cruise
2.8228,0.35936,-0.03517,-9.91861,0.000869,0.000466,0.129057,60.331,1006.0233,0.19144,0.13247,0.47342,0.0,2.0,51.17,15.0,cruise
2.8328,0.24621,-0.05424,-9.93683,0.005455,-0.005284,0.127507,60.32,1006.0246,0.18565,0.13404,0.47263,0.0,2.0,51.25,15.0,cruise
2.8428,0.28239,-0.04821,-9.73419,0.003555,0.00207,0.135767,60.277,1006.0298,0.17535,0.1437,0.47735,0.0,2.0,51.32,15.0,cruise
2.8529,0.46842,0.05155,-9.68232,-0.000446,0.003974,0.128208,60.128,1006.0476,0.19198,0.13977,0.46409,0.0,2.0,51.4,15.0,cruise
2.8629,0.44651,0.0151,-9.76342,-0.002312,0.004318,0.132373,60.51,1006.002,0.19151,0.1395,0.46744,0.0,2.0,51.47,15.0,cruise
2.8729,0.39467,0.01755,-9.9969,0.002782,-0.002199,0.129363,60.339,1006.0223,0.18007,0.13995,0.46601,0.0,2.0,51.55,15.0,cruise
2.8829,0.30383,-0.05254,-9.9322,0.005835,-0.000367,0.137851,60.276,1006.0299,0.18384,0.15126,0.46711,0.0,2.0,51.62,15.0,cruise
2.8929,0.37158,0.0387,-9.77092,0.003266,-9.3e-05,0.136281,60.434,1006.0111,0.19286,0.14209,0.46569,0.0,2.0,51.7,15.0,cruise
2.9029,0.51195,-0.04781,-9.69386,0.002828,0.003021,0.133036,60.45,1006.0091,0.17616,0.14032,0.46063,0.0,2.0,51.77,15.0,cruise
2.9129,0.41003,-0.08447,-9.80478,0.002662,0.001319,0.131995,60.386,1006.0168,0.1886,0.14192,0.46453,0.0,2.0,51.85,15.0,cruise
2.9229,0.35108,-0.02465,-9.85677,0.002045,-0.005369,0.13453,60.3,1006.027,0.18327,0.1417,0.46655,0.0,2.0,51.92,15.0,cruise
2.9329,0.37249,-0.12098,-9.93367,0.000126,0.002973,0.135636,60.054,1006.0564,0.19221,0.1501,0.46413,0.0,2.0,52.0,15.0,cruise
2.9429,0.2533,-0.00235,-9.6565,0.005889,-0.004468,0.137721,59.966,1006.0669,0.18339,0.14145,0.47576,0.0,2.0,52.07,15.0,cruise
2.953,0.47139,0.07617,-9.68995,0.003703,-0.000338,0.127447,59.99,1006.064,0.19019,0.14281,0.46357,0.0,2.0,52.15,15.0,cruise
2.963,0.36137,0.01203,-9.7415,-0.003543,0.003784,0.135462,60.25,1006.033,0.1833,0.14568,0.46435,0.0,2.0,52.22,15.0,cruise
2.973,0.33916,-0.12144,-9.9032,-0.002407,-0.00525,0.137375,60.309,1006.0259,0.18558,0.13401,0.46701,0.0,2.0,52.3,15.0,cruise
2.983,0.34994,-0.0412,-9.99447,0.001727,-0.000813,0.136276,60.202,1006.0387,0.17311,0.13926,0.46451,0.0,2.0,52.37,15.0,cruise
2.993,0.41477,-0.13556,-9.73887,0.0054,-0.001897,0.135117,60.054,1006.0564,0.17608,0.1516,0.47051,0.0,2.0,52.45,15.0,cruise
3.003,0.41134,-0.02742,-9.61742,-0.002308,0.001649,0.140596,60.373,1006.0183,0.18068,0.13192,0.46158,0.0,2.0,52.52,15.0,cruise
3.013,0.45064,-0.05647,-9.75226,0.003093,0.002519,0.131838,60.239,1006.0343,0.18399,0.14163,0.46713,0.0,2.0,52.6,15.0,cruise
3.023,0.34428,-0.04506,-9.7911,0.002428,0.001515,0.129213,60.379,1006.0176,0.17979,0.14692,0.47344,0.0,2.0,52.67,15.0,cruise
3.033,0.32864,0.06853,-9.81768,0.004628,0.000368,0.137741,60.084,1006.0528,0.19002,0.14016,0.46718,0.0,2.0,52.75,15.0,cruise
3.043,0.40507,0.06056,-9.77732,-0.000446,-0.001646,0.131869,60.428,1006.0117,0.20012,0.14739,0.46632,0.0,2.0,52.82,15.0,cruise
3.0531,0.34161,0.0121,-9.66889,0.002492,-0.000585,0.131033,60.598,1005.9914,0.17903,0.14487,0.4732,0.0,2.0,52.9,15.0,cruise
3.0631,0.41877,0.05965,-9.70849,0.004244,-0.003933,0.135179,60.436,1006.0108,0.19005,0.1373,0.46546,0.0,2.0,52.97,15.0,cruise
3.0731,0.36559,-0.18644,-9.87088,0.004268,-0.003678,0.131141,60.139,1006.0463,0.17964,0.14335,0.46659,0.0,2.0,53.05,15.0,cruise
3.0831,0.28877,-0.06599,-9.9055,0.006711,-0.003122,0.133472,60.213,1006.0373,0.17907,0.13746,0.46214,0.0,2.0,53.12,15.0,cruise
3.0931,0.31578,0.00715,-9.66943,-0.004286,-0.003601,0.128332,60.26,1006.0317,0.18717,0.14392,0.46976,0.0,2.0,53.2,15.0,cruise
3.1031,0.4793,0.05132,-9.65977,0.00154,-0.004429,0.133697,60.377,1006.0178,0.17472,0.14721,0.46941,0.0,2.0,53.27,15.0,cruise
3.1131,0.40259,0.03867,-9.70233,0.000165,0.000858,0.129819,60.102,1006.0507,0.16535,0.14615,0.46589,0.0,2.0,53.35,15.0,cruise
3.1231,0.34504,-0.15155,-9.9254,0.002497,-0.005027,0.133666,60.216,1006.037,0.18093,0.14965,0.47476,0.0,2.0,53.42,15.0,cruise
3.1331,0.32979,-0.09375,-9.91613,0.003012,-0.005,0.131901,60.242,1006.0339,0.18035,0.1418,0.46074,0.0,2.0,53.5,15.0,cruise
3.1431,0.40128,0.04531,-9.81605,0.0022,0.00132,0.134236,60.237,1006.0345,0.17592,0.14742,0.47124,0.0,2.0,53.57,15.0,cruise
3.1532,0.41147,0.01961,-9.67593,0.00236,-0.000504,0.133031,60.317,1006.025,0.1888,0.14407,0.47641,0.0,2.0,53.65,15.0,cruise
3.1632,0.33975,0.05343,-9.6612,0.000213,0.003066,0.133828,60.168,1006.0427,0.1783,0.15302,0.47462,0.0,2.0,53.72,15.0,cruise
3.1732,0.27311,-0.05941,-9.88107,-0.000407,0.005156,0.133118,60.291,1006.0281,0.18589,0.1457,0.47504,0.0,2.0,53.8,15.0,cruise
3.1832,0.24115,-0.0764,-9.84354,0.005826,-0.004257,0.12974,60.385,1006.0168,0.17659,0.14636,0.47438,0.0,2.0,53.87,15.0,cruise
3.1932,0.34715,-0.1024,-9.79569,0.001156,-0.007534,0.131509,60.091,1006.0519,0.18767,0.15869,0.46471,0.0,2.0,53.95,15.0,cruise
3.2032,0.41989,-0.0196,-9.63776,0.006549,-0.003331,0.131548,60.159,1006.0439,0.18497,0.13172,0.46779,0.0,2.0,54.02,15.0,cruise
3.2132,0.37557,-0.03381,-9.6765,0.00474,-0.006169,0.138679,60.087,1006.0525,0.18545,0.14896,0.46748,0.0,2.0,54.1,15.0,cruise
3.2232,0.30653,-0.05336,-9.87865,-0.001636,-0.002645,0.13008,60.118,1006.0488,0.17468,0.14263,0.4679,0.0,2.0,54.17,15.0,cruise
3.2332,0.34589,-0.04841,-9.79948,-0.005517,-0.000551,0.132413,60.422,1006.0124,0.18212,0.14772,0.47086,0.0,2.0,54.25,15.0,cruise
3.2432,0.33621,0.02543,-9.82848,0.003447,-0.002011,0.130926,60.265,1006.0312,0.17751,0.1552,0.48617,0.0,2.0,54.32,15.0,cruise
3.2533,0.46787,0.00016,-9.59119,0.003139,-0.004714,0.128602,60.291,1006.0281,0.18211,0.14082,0.4664,0.0,2.0,54.4,15.0,cruise
3.2633,0.40731,0.0025,-9.64536,-0.003107,0.005125,0.127774,59.996,1006.0634,0.17754,0.14338,0.46981,0.0,2.0,54.47,15.0,cruise
3.2733,0.32365,-0.06054,-9.92882,0.002422,-0.002887,0.135685,60.273,1006.0302,0.17278,0.14078,0.46914,0.0,2.0,54.55,15.0,cruise
3.2833,0.25986,-0.12224,-9.874,-0.004217,0.002296,0.132842,60.293,1006.0278,0.17219,0.1532,0.46999,0.0,2.0,54.62,15.0,cruise
3.2933,0.33768,0.00385,-9.82245,-0.003785,-0.005289,0.133403,60.3,1006.0271,0.18237,0.14495,0.47287,0.0,2.0,54.7,15.0,cruise
3.3033,0.40096,-0.01856,-9.6036,0.000925,-0.003827,0.132477,60.281,1006.0293,0.17613,0.14765,0.46348,0.0,2.0,54.77,15.0,cruise
3.3133,0.38359,-0.03849,-9.76361,0.000394,0.000269,0.132901,60.22,1006.0365,0.1738,0.15306,0.45802,0.0,2.0,54.85,15.0,cruise
3.3233,0.36832,-0.14352,-9.95496,-0.000416,0.004575,0.13737,60.406,1006.0144,0.17821,0.14074,0.47078,0.0,2.0,54.92,15.0,cruise
3.3333,0.29569,-0.09604,-9.89445,-0.000299,0.000675,0.126539,60.311,1006.0257,0.17179,0.14817,0.47152,0.0,2.0,55.0,15.0,cruise
3.3433,0.31535,0.00117,-9.75245,-0.000865,-0.003322,0.131897,60.185,1006.0408,0.17599,0.14899,0.46694,0.0,2.0,55.08,15.0,cruise
3.3534,0.48631,0.04936,-9.64245,0.001551,-0.004994,0.131055,60.252,1006.0327,0.16948,0.15248,0.46747,0.0,2.0,55.15,15.0,cruise
3.3634,0.36334,-0.02558,-9.56142,-0.000883,-0.008108,0.12757,60.414,1006.0134,0.18216,0.1473,0.47639,0.0,2.0,55.23,15.0,cruise
3.3734,0.36659,-0.05842,-9.89506,0.00165,0.000737,0.133578,60.198,1006.0391,0.17437,0.16078,0.47126,0.0,2.0,55.3,15.0,cruise
3.3834,0.36617,-0.02875,-9.89069,0.001436,0.000796,0.134558,60.34,1006.0223,0.17153,0.15296,0.46966,0.0,2.0,55.38,15.0,cruise
3.3934,0.35482,0.12571,-9.82275,0.003995,-0.004488,0.132795,60.685,1005.981,0.16995,0.14758,0.46991,0.0,2.0,55.45,15.0,cruise
3.4034,0.36444,0.07254,-9.6507,0.003083,-0.005884,0.126968,60.266,1006.0311,0.16669,0.15895,0.46235,0.0,2.0,55.53,15.0,cruise
3.4134,0.33036,0.02419,-9.73538,-0.003449,0.004215,0.129374,60.271,1006.0305,0.17324,0.15508,0.47231,0.0,2.0,55.6,15.0,cruise
3.4234,0.2887,-0.06476,-9.8907,0.003346,-0.005404,0.138431,60.186,1006.0406,0.17401,0.14589,0.46351,0.0,2.0,55.68,15.0,cruise
3.4334,0.27841,-0.10489,-9.92674,-0.001836,0.000176,0.130023,60.166,1006.043,0.17185,0.15682,0.47107,0.0,2.0,55.75,15.0,cruise
3.4434,0.36406,-0.08101,-9.80669,-0.002728,0.002016,0.133957,60.171,1006.0424,0.17075,0.14789,0.46557,0.0,2.0,55.83,15.0,cruise
3.4535,0.42954,0.01385,-9.52061,0.00486,0.002045,0.134379,60.237,1006.0346,0.17633,0.15043,0.47815,0.0,2.0,55.9,15.0,cruise
3.4635,0.40338,0.01797,-9.69653,0.006323,-0.006186,0.137881,60.272,1006.0303,0.16607,0.14858,0.46175,0.0,2.0,55.98,15.0,cruise
3.4735,0.36376,-0.09918,-9.86841,0.004503,-0.003901,0.131547,60.104,1006.0504,0.17092,0.16537,0.47389,0.0,2.0,56.05,15.0,cruise
3.4835,0.30845,-0.08725,-9.91009,0.001481,-0.003144,0.13394,60.157,1006.0441,0.16783,0.15451,0.46416,0.0,2.0,56.13,15.0,cruise
3.4935,0.40453,-0.01114,-9.84483,0.001414,-0.006944,0.13443,60.263,1006.0315,0.18164,0.15818,0.4647,0.0,2.0,56.2,15.0,cruise
3.5035,0.30532,-0.00979,-9.68648,0.006571,-0.00192,0.135154,60.257,1006.0321,0.17124,0.15282,0.47553,0.0,2.0,56.28,15.0,cruise
3.5135,0.39994,-0.04729,-9.61829,0.00021,-0.00325,0.123869,60.395,1006.0156,0.17241,0.15364,0.46799,0.0,2.0,56.35,15.0,cruise
3.5235,0.30325,-0.06522,-9.85078,0.003015,-0.00257,0.135211,60.288,1006.0284,0.16914,0.15429,0.4632,0.0,2.0,56.43,15.0,cruise
3.5335,0.33307,-0.13448,-9.96058,-0.00496,-0.002399,0.137203,60.282,1006.0291,0.17464,0.16522,0.47202,0.0,2.0,56.5,15.0,cruise
3.5435,0.32883,-0.04294,-9.7569,-0.000809,-0.003555,0.135332,60.454,1006.0086,0.16295,0.14953,0.46768,0.0,2.0,56.58,15.0,cruise
3.5536,0.43634,0.08478,-9.4908,-0.000303,-0.003136,0.134141,60.198,1006.0392,0.17024,0.1517,0.45689,0.0,2.0,56.65,15.0,cruise
3.5636,0.39165,-0.00253,-9.63246,0.001109,-0.005675,0.131599,59.986,1006.0645,0.16464,0.15711,0.46876,0.0,2.0,56.73,15.0,cruise
3.5736,0.37901,-0.14428,-9.8833,-0.000335,0.000955,0.134406,60.396,1006.0155,0.17817,0.15225,0.47668,0.0,2.0,56.8,15.0,cruise
3.5836,0.26867,-0.11187,-9.87312,-0.003435,-0.000202,0.132665,60.461,1006.0078,0.16992,0.15453,0.47255,0.0,2.0,56.88,15.0,cruise
3.5936,0.33305,-0.04818,-9.73683,0.000987,-0.003146,0.132108,60.539,1005.9984,0.16776,0.15205,0.46146,0.0,2.0,56.95,15.0,cruise
3.6036,0.40425,0.06013,-9.5848,0.00141,0.000952,0.134551,60.467,1006.0071,0.17466,0.16241,0.46915,0.0,2.0,57.03,15.0,cruise
3.6136,0.32022,0.04068,-9.65365,0.005792,0.001938,0.138193,60.393,1006.0159,0.17064,0.1478,0.47154,0.0,2.0,57.1,15.0,cruise
3.6236,0.3062,-0.03469,-9.86523,0.002489,-0.002215,0.135158,59.892,1006.0758,0.1702,0.16089,0.47935,0.0,2.0,57.18,15.0,cruise
3.6336,0.35719,0.02571,-9.90352,0.00109,-0.000312,0.132344,60.183,1006.041,0.16643,0.14947,0.47264,0.0,2.0,57.25,15.0,cruise
3.6436,0.36556,-0.03221,-9.79265,0.002589,0.00043,0.128967,60.107,1006.0501,0.17354,0.14831,0.47274,0.0,2.0,57.33,15.0,cruise
3.6537,0.48698,0.10794,-9.59065,0.003182,0.004849,0.125364,60.23,1006.0353,0.17276,0.15366,0.4762,0.0,2.0,57.4,15.0,cruise
3.6637,0.38568,0.01511,-9.70308,-0.000507,-0.00355,0.133186,60.184,1006.0409,0.17304,0.15877,0.4755,0.0,2.0,57.48,15.0,cruise
3.6737,0.27859,-0.12906,-9.86508,0.009758,0.001882,0.130728,60.364,1006.0194,0.17167,0.14881,0.47685,0.0,2.0,57.55,15.0,cruise
3.6837,0.31208,-0.06303,-9.91209,0.004492,-0.004174,0.127246,60.348,1006.0212,0.15757,0.1543,0.47593,0.0,2.0,57.63,15.0,cruise
3.6937,0.39291,0.03733,-9.7369,0.008302,-0.003659,0.133561,60.234,1006.0349,0.17233,0.15566,0.47859,0.0,2.0,57.7,15.0,cruise
3.7037,0.3794,0.09738,-9.59892,0.000979,-0.000261,0.133144,60.353,1006.0206,0.16627,0.15261,0.46832,0.0,2.0,57.78,15.0,cruise
3.7137,0.30443,0.0518,-9.74809,0.000429,4.8e-05,0.134873,60.034,1006.0588,0.1666,0.15857,0.47026,0.0,2.0,57.85,15.0,cruise
3.7237,0.40319,-0.08413,-9.96445,0.003524,-0.003498,0.127072,60.276,1006.0298,0.17297,0.15011,0.48168,0.0,2.0,57.93,15.0,cruise
3.7337,0.27824,-0.0544,-9.97547,0.001211,-0.002294,0.127886,60.724,1005.9764,0.1641,0.1541,0.47485,0.0,2.0,58.0,15.0,cruise
3.7437,0.4536,0.04037,-9.83184,0.001718,-0.007534,0.135067,60.055,1006.0563,0.16231,0.15671,0.47223,0.0,2.0,58.08,15.0,cruise
3.7538,0.39244,0.10281,-9.59353,0.003009,-0.005568,0.137457,60.18,1006.0414,0.17477,0.16699,0.47256,0.0,2.0,58.15,15.0,cruise
3.7638,0.44099,-0.14357,-9.6931,0.00438,0.000884,0.12871,60.256,1006.0323,0.15316,0.1591,0.46058,0.0,2.0,58.23,15.0,cruise
3.7738,0.39318,0.01693,-9.88265,0.002629,-0.002537,0.133094,60.128,1006.0476,0.16871,0.14898,0.46085,0.0,2.0,58.3,15.0,cruise
3.7838,0.31352,-0.06965,-9.90202,-0.000894,0.003765,0.132864,60.335,1006.0228,0.16633,0.16235,0.47288,0.0,2.0,58.38,15.0,cruise
3.7938,0.38376,0.01974,-9.86674,-0.004304,-0.00213,0.131793,60.387,1006.0166,0.1652,0.1604,0.46377,0.0,2.0,58.45,15.0,cruise
3.8038,0.40469,-0.04095,-9.61171,-0.004579,-0.000822,0.127981,60.242,1006.0339,0.16933,0.15877,0.46177,0.0,2.0,58.53,15.0,cruise
3.8138,0.35675,-0.06377,-9.76506,0.001405,-0.000172,0.133692,60.39,1006.0162,0.16455,0.15642,0.46463,0.0,2.0,58.6,15.0,cruise
3.8238,0.31573,-0.10749,-9.8981,0.001319,-0.002187,0.141563,60.098,1006.0511,0.16374,0.15082,0.46806,0.0,2.0,58.68,15.0,cruise
3.8338,0.30222,-0.01742,-9.93911,0.000461,-0.003128,0.12818,60.202,1006.0387,0.16221,0.15846,0.47279,0.0,2.0,58.75,15.0,cruise
3.8438,0.3491,-0.03111,-9.86519,0.002658,-0.003933,0.134618,60.497,1006.0034,0.16293,0.15312,0.46992,0.0,2.0,58.83,15.0,cruise
3.8539,0.42241,0.00986,-9.66008,0.002724,-0.000349,0.131351,60.052,1006.0566,0.16591,0.15455,0.47107,0.0,2.0,58.9,15.0,cruise
3.8639,0.39876,-0.08248,-9.67303,0.002588,7.4e-05,0.132729,60.003,1006.0624,0.16976,0.16059,0.46398,0.0,2.0,58.98,15.0,cruise
3.8739,0.29916,-0.02912,-9.81865,-0.000433,0.000645,0.126985,60.144,1006.0457,0.15281,0.1542,0.47754,0.0,2.0,59.05,15.0,cruise
3.8839,0.42183,-0.04854,-9.94932,0.000363,-0.000409,0.127663,60.214,1006.0373,0.17006,0.1536,0.46625,0.0,2.0,59.13,15.0,cruise
3.8939,0.36017,-0.00577,-9.81408,0.001249,-6e-06,0.138241,60.281,1006.0293,0.16243,0.16662,0.46725,0.0,2.0,59.2,15.0,cruise
3.9039,0.33802,0.03724,-9.57954,0.002112,-0.002115,0.128012,60.291,1006.0281,0.16855,0.15296,0.46878,0.0,2.0,59.28,15.0,cruise
3.9139,0.37253,-0.0224,-9.66191,0.002351,-0.000536,0.129422,60.053,1006.0565,0.16345,0.15674,0.47919,0.0,2.0,59.35,15.0,cruise
3.9239,0.43352,0.05951,-9.89636,0.002734,0.000782,0.134606,60.247,1006.0334,0.16829,0.15942,0.47064,0.0,2.0,59.43,15.0,cruise
3.9339,0.24172,-0.02865,-9.93138,0.002412,-0.001114,0.132875,60.293,1006.0278,0.16558,0.15857,0.46272,0.0,2.0,59.5,15.0,cruise
3.9439,0.3865,-0.06176,-9.85285,-0.002063,-0.000946,0.132042,59.98,1006.0652,0.15948,0.16556,0.46774,0.0,2.0,59.58,15.0,cruise
3.954,0.39517,0.07634,-9.59506,0.004072,-0.010109,0.137529,60.395,1006.0156,0.17345,0.15595,0.46118,0.0,2.0,59.65,15.0,cruise
3.964,0.39292,-0.00053,-9.63848,0.004225,-0.002032,0.131616,60.378,1006.0176,0.15962,0.1583,0.47519,0.0,2.0,59.73,15.0,cruise
3.974,0.40325,0.01501,-9.85416,-0.005411,-0.002209,0.130054,60.281,1006.0293,0.15729,0.16005,0.4648,0.0,2.0,59.8,15.0,cruise
3.984,0.25448,0.0002,-9.96749,0.001022,0.001091,0.135074,60.419,1006.0128,0.16191,0.16391,0.47687,0.0,2.0,59.88,15.0,cruise
3.994,0.3783,-0.11402,-9.81678,0.003094,-0.003675,0.137195,60.291,1006.0281,0.16058,0.16606,0.46909,0.0,2.0,59.95,15.0,cruise
4.004,0.41192,-1.96998,-8.37081,20.944092,0.000674,0.132536,60.52,1006.0007,0.15202,0.15213,0.47385,12.0,45.0,60.03,15.0,cruise
4.014,0.43674,-2.03431,-8.30939,0.003253,-0.004241,0.130217,60.328,1006.0236,0.16417,0.1549,0.46901,12.0,45.0,60.11,15.0,cruise
4.024,0.32893,-2.05607,-8.50373,-0.00062,0.001955,0.130731,60.256,1006.0322,0.15144,0.1573,0.47258,12.0,45.0,60.18,15.0,cruise
4.034,0.33406,-2.07005,-8.55293,0.007277,-0.004034,0.127493,60.142,1006.0458,0.15563,0.15614,0.47047,12.0,45.0,60.26,15.0,cruise
4.044,0.41836,-1.9854,-8.42982,0.007444,-0.002861,0.127453,60.458,1006.0081,0.14971,0.15738,0.4726,12.0,45.0,60.33,15.0,cruise
4.0541,0.39728,-2.0253,-8.35827,0.001001,0.001232,0.132415,60.175,1006.0419,0.15241,0.15725,0.47196,12.0,45.0,60.41,15.0,cruise
4.0641,0.41112,-2.06398,-8.43756,0.002311,-0.004476,0.134438,60.187,1006.0406,0.15346,0.16221,0.48179,12.0,45.0,60.48,15.0,cruise
4.0741,0.37948,-2.06915,-8.48247,-0.004197,-0.005118,0.124826,60.559,1005.996,0.16578,0.16355,0.47068,12.0,45.0,60.56,15.0,cruise
4.0841,0.24003,-2.11119,-8.4918,0.001444,-0.00344,0.127089,60.507,1006.0023,0.15755,0.15294,0.46538,12.0,45.0,60.63,15.0,cruise
4.0941,0.29045,-2.06998,-8.44841,-0.000441,0.000578,0.132609,60.459,1006.008,0.15586,0.17709,0.46718,12.0,45.0,60.71,15.0,cruise
4.1041,0.35651,-2.06742,-8.31143,-0.004078,-0.000862,0.126647,60.324,1006.0241,0.15064,0.1601,0.47302,12.0,45.0,60.78,15.0,cruise
4.1141,0.50987,-2.077,-8.3319,-0.001077,-0.004343,0.130224,60.424,1006.0122,0.1547,0.17339,0.47208,12.0,45.0,60.86,15.0,cruise
4.1241,0.29235,-2.09319,-8.53712,0.003497,-0.006648,0.128345,60.211,1006.0376,0.1603,0.16845,0.4769,12.0,45.0,60.93,15.0,cruise
4.1341,0.34401,-2.10436,-8.54237,-0.00233,-0.007265,0.133669,60.149,1006.045,0.15631,0.16303,0.47124,12.0,45.0,61.01,15.0,cruise
4.1441,0.40039,-2.02285,-8.45287,-0.000233,-0.001415,0.130573,60.271,1006.0305,0.16948,0.16348,0.47225,12.0,45.0,61.08,15.0,cruise
4.1542,0.3662,-1.96553,-8.26489,0.003394,-0.001092,0.135469,60.491,1006.0042,0.15755,0.16213,0.47447,12.0,45.0,61.16,15.0,cruise
4.1642,0.35054,-2.05829,-8.3245,-0.004138,0.000761,0.129475,60.229,1006.0355,0.15481,0.16304,0.46828,12.0,45.0,61.23,15.0,cruise
4.1742,0.34098,-2.07701,-8.51599,-0.001238,0.001527,0.126032,60.269,1006.0307,0.15328,0.16508,0.46273,12.0,45.0,61.31,15.0,cruise
4.1842,0.29264,-2.10585,-8.52888,0.00207,-0.005258,0.130866,60.433,1006.0111,0.14937,0.16273,0.46995,12.0,45.0,61.38,15.0,cruise
4.1942,0.33317,-1.93094,-8.48697,0.002434,-0.003991,0.133908,60.431,1006.0114,0.15218,0.16299,0.46552,12.0,45.0,61.46,15.0,cruise
4.2042,0.34384,-1.96538,-8.33228,-0.006153,0.003615,0.129914,60.263,1006.0314,0.16307,0.16269,0.46918,12.0,45.0,61.53,15.0,cruise
4.2142,0.33522,-2.10335,-8.32753,0.002185,-0.000771,0.130871,60.303,1006.0266,0.14543,0.16584,0.47081,12.0,45.0,61.61,15.0,cruise
4.2242,0.44397,-2.07243,-8.53714,0.000936,-0.002668,0.133631,60.304,1006.0265,0.14806,0.15549,0.47131,12.0,45.0,61.68,15.0,cruise
4.2342,0.38672,-2.09646,-8.5418,0.004125,-0.000897,0.129872,60.329,1006.0235,0.16014,0.16646,0.47374,12.0,45.0,61.76,15.0,cruise
4.2442,0.32822,-2.07669,-8.47572,0.000937,0.001825,0.125278,60.305,1006.0265,0.15346,0.15709,0.47336,12.0,45.0,61.83,15.0,cruise
4.2543,0.36414,-2.03547,-8.21383,0.004117,5.3e-05,0.13346,60.275,1006.03,0.1636,0.16809,0.46625,12.0,45.0,61.91,15.0,cruise
4.2643,0.32733,-1.99237,-8.31916,-0.003204,-0.000395,0.131524,60.38,1006.0175,0.15555,0.16117,0.47316,12.0,45.0,61.98,15.0,cruise
4.2743,0.32129,-2.09349,-8.51267,0.004451,-0.002514,0.136444,60.568,1005.9951,0.1494,0.14975,0.47522,12.0,45.0,62.06,15.0,cruise
4.2843,0.30019,-2.14402,-8.61196,-0.000191,0.002236,0.132799,60.493,1006.004,0.15531,0.16294,0.46805,12.0,45.0,62.13,15.0,cruise
4.2943,0.37816,-2.0267,-8.42328,0.000262,-0.001131,0.134076,60.242,1006.0339,0.14691,0.16059,0.46879,12.0,45.0,62.21,15.0,cruise
4.3043,0.43269,-1.95533,-8.37603,-0.00075,-0.002746,0.134699,60.221,1006.0365,0.15018,0.1577,0.47242,12.0,45.0,62.28,15.0,cruise
4.3143,0.38956,-2.0527,-8.32692,0.004436,-0.004687,0.129795,60.488,1006.0046,0.15245,0.16824,0.47201,12.0,45.0,62.36,15.0,cruise
4.3243,0.34513,-2.08805,-8.44106,0.00454,0.001574,0.12878,60.496,1006.0036,0.15003,0.16125,0.46915,12.0,45.0,62.43,15.0,cruise
4.3343,0.35836,-2.07361,-8.59561,0.003564,-0.001263,0.130628,60.194,1006.0397,0.15361,0.16474,0.46312,12.0,45.0,62.51,15.0,cruise
4.3443,0.39096,-2.09282,-8.39744,-0.003166,-0.002231,0.130248,60.154,1006.0445,0.14887,0.17414,0.47072,12.0,45.0,62.58,15.0,cruise
4.3544,0.3587,-2.11042,-8.39658,-0.000566,-0.003587,0.131696,59.959,1006.0677,0.15059,0.17056,0.47811,12.0,45.0,62.66,15.0,cruise
4.3644,0.30287,-2.05951,-8.35473,0.001484,-0.005369,0.137418,60.307,1006.0262,0.15018,0.17352,0.46992,12.0,45.0,62.73,15.0,cruise
4.3744,0.3675,-2.10723,-8.54778,-0.000784,0.004851,0.134273,60.341,1006.0221,0.14565,0.17024,0.46321,12.0,45.0,62.81,15.0,cruise
4.3844,0.23811,-2.12853,-8.48515,0.006741,-0.003064,0.130358,60.054,1006.0564,0.15067,0.16663,0.47395,12.0,45.0,62.88,15.0,cruise
4.3944,0.39271,-2.07993,-8.45269,-0.00106,-0.000108,0.130889,60.369,1006.0188,0.15191,0.16629,0.47397,12.0,45.0,62.96,15.0,cruise
4.4044,0.31891,-2.07302,-8.32622,-0.003296,-0.002939,0.131272,60.496,1006.0035,0.15048,0.17123,0.47151,12.0,45.0,63.03,15.0,cruise
4.4144,0.37141,-2.01216,-8.27311,0.004616,-0.002125,0.127449,60.042,1006.0578,0.14788,0.15452,0.47898,12.0,45.0,63.11,15.0,cruise
4.4244,0.37831,-2.10055,-8.53095,0.00413,-0.005064,0.129342,60.185,1006.0407,0.14982,0.16944,0.47596,12.0,45.0,63.18,15.0,cruise
4.4344,0.36864,-2.10105,-8.53169,-0.000985,-0.007167,0.130371,60.179,1006.0415,0.14583,0.16167,0.46769,12.0,45.0,63.26,15.0,cruise
4.4444,0.37707,-1.98571,-8.57031,-0.00282,-0.004069,0.134688,60.269,1006.0307,0.14512,0.17018,0.47478,12.0,45.0,63.33,15.0,cruise
4.4545,0.39603,-2.06153,-8.30142,0.000335,-0.002416,0.130849,60.439,1006.0104,0.14973,0.17191,0.47668,12.0,45.0,63.41,15.0,cruise
4.4645,0.42242,-2.04383,-8.25554,0.002432,0.006115,0.133296,60.405,1006.0145,0.14967,0.16636,0.46871,12.0,45.0,63.48,15.0,cruise
4.4745,0.36492,-2.04171,-8.41425,0.001973,-0.003085,0.13138,60.102,1006.0507,0.15627,0.16428,0.47484,12.0,45.0,63.56,15.0,cruise
4.4845,0.33075,-2.08553,-8.58842,-0.001323,-0.004598,0.137537,60.317,1006.025,0.15333,0.17404,0.46795,12.0,45.0,63.63,15.0,cruise
4.4945,0.36651,-2.06989,-8.54548,0.000462,7.4e-05,0.13086,60.251,1006.0328,0.14658,0.1778,0.46083,12.0,45.0,63.71,15.0,cruise
4.5045,0.42145,-2.0337,-8.34959,0.000183,0.000302,0.134531,60.328,1006.0237,0.15265,0.17371,0.47408,12.0,45.0,63.78,15.0,cruise
4.5145,0.37265,-1.99255,-8.28067,-0.001445,-0.006419,0.126282,60.31,1006.0258,0.14842,0.16159,0.47523,12.0,45.0,63.86,15.0,cruise
4.5245,0.35871,-1.99868,-8.44989,-0.002189,-0.000339,0.134356,60.218,1006.0368,0.13946,0.16812,0.465,12.0,45.0,63.93,15.0,cruise
4.5345,0.37292,-2.12075,-8.4961,-0.005343,-0.001306,0.136637,60.166,1006.043,0.14561,0.16573,0.46658,12.0,45.0,64.01,15.0,cruise
4.5445,0.35629,-2.13772,-8.49673,0.002574,-0.002362,0.129327,60.455,1006.0086,0.1498,0.16267,0.46353,12.0,45.0,64.08,15.0,cruise
4.5546,0.34787,-1.99442,-8.30603,0.003406,-0.002691,0.129551,60.438,1006.0105,0.14312,0.16893,0.46225,12.0,45.0,64.16,15.0,cruise
4.5646,0.37198,-1.96624,-8.3395,0.003478,-0.008698,0.130632,60.274,1006.0301,0.15435,0.16228,0.47335,12.0,45.0,64.23,15.0,cruise
4.5746,0.4051,-2.10105,-8.48354,0.001453,-0.006161,0.130962,60.491,1006.0041,0.14799,0.16747,0.47057,12.0,45.0,64.31,15.0,cruise
4.5846,0.34609,-2.06152,-8.60997,0.005641,0.002211,0.134344,60.174,1006.0421,0.14001,0.16674,0.4703,12.0,45.0,64.38,15.0,cruise
4.5946,0.25486,-2.04916,-8.43024,0.002765,-0.003771,0.129916,60.345,1006.0216,0.14409,0.17072,0.47301,12.0,45.0,64.46,15.0,cruise
4.6046,0.44965,-2.07913,-8.31139,-3.5e-05,-0.002036,0.134897,60.446,1006.0096,0.15158,0.17075,0.46945,12.0,45.0,64.53,15.0,cruise
4.6146,0.3886,-2.10324,-8.2348,8.3e-05,-0.000215,0.134337,60.113,1006.0493,0.13972,0.17648,0.47145,12.0,45.0,64.61,15.0,cruise
4.6246,0.32458,-2.07069,-8.40664,0.003848,-0.006125,0.137187,60.445,1006.0097,0.14331,0.16291,0.47527,12.0,45.0,64.68,15.0,cruise
4.6346,0.34116,-2.1735,-8.593,0.01044,-0.001675,0.130071,60.149,1006.0451,0.15267,0.17323,0.47704,12.0,45.0,64.76,15.0,cruise
4.6446,0.35475,-2.01281,-8.54048,0.001538,-0.000873,0.136433,60.348,1006.0213,0.14042,0.16944,0.46162,12.0,45.0,64.83,15.0,cruise
4.6547,0.27838,-1.98198,-8.34381,0.000269,0.00076,0.136472,60.38,1006.0174,0.15293,0.17175,0.47151,12.0,45.0,64.91,15.0,cruise
4.6647,0.41402,-2.08045,-8.2521,-0.006293,-0.003505,0.132349,60.182,1006.0412,0.14077,0.17856,0.47552,12.0,45.0,64.98,15.0,cruise
4.6747,0.3205,-2.08686,-8.52108,0.003153,-0.002502,0.126396,60.315,1006.0252,0.14496,0.1743,0.46963,12.0,45.0,65.06,15.0,cruise
4.6847,0.29897,-2.00112,-8.58064,0.003196,-0.003359,0.13436,60.082,1006.0531,0.1402,0.16357,0.46698,12.0,45.0,65.14,15.0,cruise
4.6947,0.40407,-2.10717,-8.4654,0.005592,-0.001823,0.135255,60.38,1006.0175,0.14283,0.17348,0.4792,12.0,45.0,65.21,15.0,cruise
